[
  {
    "gadm_name": "Johor",
    "state": "Johor",
    "lon": 103.7471,
    "lat": 1.7959,
    "doctors": 5023,
    "population": 4028300,
    "doctors_per_10k": 12.47,
    "above_avg": false,
    "tier": "Below national avg",
    "region": "peninsula"
  },
  {
    "gadm_name": "Kedah",
    "state": "Kedah",
    "lon": 100.7223,
    "lat": 5.9525,
    "doctors": 3179,
    "population": 2163100,
    "doctors_per_10k": 14.7,
    "above_avg": false,
    "tier": "Below national avg",
    "region": "peninsula"
  },
  {
    "gadm_name": "Kelantan",
    "state": "Kelantan",
    "lon": 102.0192,
    "lat": 5.4152,
    "doctors": 4056,
    "population": 1830600,
    "doctors_per_10k": 22.16,
    "above_avg": true,
    "tier": "Above national avg",
    "region": "peninsula"
  },
  {
    "gadm_name": "Melaka",
    "state": "Melaka",
    "lon": 102.2648,
    "lat": 2.2905,
    "doctors": 2121,
    "population": 1008600,
    "doctors_per_10k": 21.03,
    "above_avg": true,
    "tier": "Above national avg",
    "region": "peninsula"
  },
  {
    "gadm_name": "NegeriSembilan",
    "state": "Negeri Sembilan",
    "lon": 102.0468,
    "lat": 2.6771,
    "doctors": 2876,
    "population": 1207900,
    "doctors_per_10k": 23.81,
    "above_avg": true,
    "tier": "Above national avg",
    "region": "peninsula"
  },
  {
    "gadm_name": "Pahang",
    "state": "Pahang",
    "lon": 102.6643,
    "lat": 3.8809,
    "doctors": 2927,
    "population": 1614300,
    "doctors_per_10k": 18.13,
    "above_avg": true,
    "tier": "Above national avg",
    "region": "peninsula"
  },
  {
    "gadm_name": "Perak",
    "state": "Perak",
    "lon": 100.9455,
    "lat": 4.6551,
    "doctors": 4214,
    "population": 2514400,
    "doctors_per_10k": 16.76,
    "above_avg": false,
    "tier": "Below national avg",
    "region": "peninsula"
  },
  {
    "gadm_name": "Perlis",
    "state": "Perlis",
    "lon": 100.2204,
    "lat": 6.5535,
    "doctors": 654,
    "population": 289800,
    "doctors_per_10k": 22.57,
    "above_avg": true,
    "tier": "Above national avg",
    "region": "peninsula"
  },
  {
    "gadm_name": "PulauPinang",
    "state": "Penang",
    "lon": 100.2381,
    "lat": 5.3808,
    "doctors": 2996,
    "population": 1740900,
    "doctors_per_10k": 17.21,
    "above_avg": false,
    "tier": "Below national avg",
    "region": "peninsula"
  },
  {
    "gadm_name": "Sabah",
    "state": "Sabah",
    "lon": 112.8995,
    "lat": 5.5744,
    "doctors": 4193,
    "population": 3414900,
    "doctors_per_10k": 12.28,
    "above_avg": false,
    "tier": "Below national avg",
    "region": "east_malaysia"
  },
  {
    "gadm_name": "Sarawak",
    "state": "Sarawak",
    "lon": 107.7766,
    "lat": 2.257,
    "doctors": 4005,
    "population": 2473500,
    "doctors_per_10k": 16.19,
    "above_avg": false,
    "tier": "Below national avg",
    "region": "east_malaysia"
  },
  {
    "gadm_name": "Selangor",
    "state": "Selangor",
    "lon": 101.3652,
    "lat": 3.3375,
    "doctors": 10374,
    "population": 7050300,
    "doctors_per_10k": 14.71,
    "above_avg": false,
    "tier": "Below national avg",
    "region": "peninsula"
  },
  {
    "gadm_name": "Trengganu",
    "state": "Terengganu",
    "lon": 103.0215,
    "lat": 4.7942,
    "doctors": 2119,
    "population": 1186600,
    "doctors_per_10k": 17.86,
    "above_avg": true,
    "tier": "Above national avg",
    "region": "peninsula"
  },
  {
    "gadm_name": "KualaLumpur",
    "state": "W.P. Kuala Lumpur",
    "lon": 101.7041,
    "lat": 3.1572,
    "doctors": 7331,
    "population": 1961200,
    "doctors_per_10k": 37.38,
    "above_avg": true,
    "tier": "Above national avg",
    "region": "peninsula"
  },
  {
    "gadm_name": "Labuan",
    "state": "W.P. Labuan",
    "lon": 110.7176,
    "lat": 5.3,
    "doctors": 102,
    "population": 96900,
    "doctors_per_10k": 10.53,
    "above_avg": false,
    "tier": "Below national avg",
    "region": "east_malaysia"
  },
  {
    "gadm_name": "Putrajaya",
    "state": "W.P. Putrajaya",
    "lon": 101.6835,
    "lat": 2.9002,
    "doctors": 2023,
    "population": 117000,
    "doctors_per_10k": 172.91,
    "above_avg": true,
    "tier": "Above national avg",
    "region": "peninsula"
  }
]
